{"data":{"ready":true,"paused":false,"onGround":true,"crashed":false,"sts":"2017-09-22T11:51:42Z","ts":"2017-11-15T16:12:32.71+11:00","pitch":"-0.3134933323","roll":"0.4796686281","yaw":"0.0000000000","airspeed":"114.4296875000","altitude":"22.4108729295","heading":{"true":22.007881429751144,"mag":35.834175375063644},"vspeed":"-8.4584156250","ilsDeviation":{"loc":"-0.0144449874","gs":-2.5},"onTrack":false,"status":1,"lng":-73.76561152554567,"lat":40.63147901428572,"weather":{"wind":{"heading":"337.1868286133","speed":18},"temp":"16.0390625000","turbulance":"N/A"}},"collectorId":"db8a6add-a6c2-4157-bb3c-b348ba77b199","runId":"0"}
{"data":{"ready":true,"paused":false,"onGround":true,"crashed":false,"sts":"2017-09-22T11:51:42Z","ts":"2017-11-15T16:12:32.71+11:00","pitch":"-0.3134933323","roll":"0.4796686281","yaw":"0.0000000000","airspeed":"114.4296875000","altitude":"22.4108729295","heading":{"true":22.007881429751144,"mag":35.834175375063644},"vspeed":"-8.4584156250","ilsDeviation":{"loc":"-0.0144449874","gs":-2.5},"onTrack":false,"status":1,"lng":-73.76561152554567,"lat":40.63147901428572,"weather":{"wind":{"heading":"337.1868286133","speed":18},"temp":"16.0390625000","turbulance":"N/A"}},"collectorId":"db8a6add-a6c2-4157-bb3c-b348ba77b199","runId":"0"}
{"data":{"ready":true,"paused":false,"onGround":true,"crashed":false,"sts":"2017-09-22T11:51:43Z","ts":"2017-11-15T16:12:33.071+11:00","pitch":"-0.3158514851","roll":"0.4801612476","yaw":"0.0000000000","airspeed":"114.2890625000","altitude":"22.4166953647","heading":{"true":21.859984437474097,"mag":35.6862783827866},"vspeed":"-6.9205218750","ilsDeviation":{"loc":"-0.0144449874","gs":-2.5},"onTrack":false,"status":1,"lng":-73.76557446725225,"lat":40.631531357577934,"weather":{"wind":{"heading":"337.1875610352","speed":18},"temp":"16.0390625000","turbulance":"N/A"}},"collectorId":"db8a6add-a6c2-4157-bb3c-b348ba77b199","runId":"0"}
{"data":{"ready":true,"paused":false,"onGround":true,"crashed":false,"sts":"2017-09-22T11:51:43Z","ts":"2017-11-15T16:12:33.212+11:00","pitch":"-0.3158514851","roll":"0.4801612476","yaw":"0.0000000000","airspeed":"114.2890625000","altitude":"22.4166953647","heading":{"true":21.859984437474097,"mag":35.6862783827866},"vspeed":"-6.9205218750","ilsDeviation":{"loc":"-0.0144449874","gs":-2.5},"onTrack":false,"status":1,"lng":-73.76557446725225,"lat":40.631531357577934,"weather":{"wind":{"heading":"337.1875610352","speed":18},"temp":"16.0390625000","turbulance":"N/A"}},"collectorId":"db8a6add-a6c2-4157-bb3c-b348ba77b199","runId":"0"}
{"data":{"ready":false,"paused":true,"onGround":true,"crashed":false,"sts":"2017-09-22T11:51:43Z","ts":"2017-11-15T16:12:33.336+11:00","pitch":"4.9999999895","roll":"0.0000000000","yaw":"0.0000000000","airspeed":"114.2890625000","altitude":"2012.9993219372","heading":{"true":30.70999906172208,"mag":44.53629300703458},"vspeed":"-6.9205218750","ilsDeviation":{"loc":"-0.0144449874","gs":-2.5},"onTrack":false,"status":1,"lng":-73.88200583353479,"lat":40.48240526003456,"weather":{"wind":{"heading":"337.1875610352","speed":18},"temp":"16.0390625000","turbulance":"N/A"}},"collectorId":"db8a6add-a6c2-4157-bb3c-b348ba77b199","runId":"0"}
{"data":{"ready":false,"paused":true,"onGround":true,"crashed":false,"sts":"2017-09-22T11:51:43Z","ts":"2017-11-15T16:12:33.443+11:00","pitch":"4.9999999895","roll":"0.0000000000","yaw":"0.0000000000","airspeed":"114.2890625000","altitude":"2012.9993219372","heading":{"true":30.70999906172208,"mag":44.53629300703458},"vspeed":"-6.9205218750","ilsDeviation":{"loc":"-0.0144449874","gs":-2.5},"onTrack":false,"status":1,"lng":-73.88200583353479,"lat":40.48240526003456,"weather":{"wind":{"heading":"337.1875610352","speed":18},"temp":"16.0390625000","turbulance":"N/A"}},"collectorId":"db8a6add-a6c2-4157-bb3c-b348ba77b199","runId":"0"}
{"data":{"ready":false,"paused":true,"onGround":true,"crashed":false,"sts":"2017-09-22T11:51:43Z","ts":"2017-11-15T16:12:33.548+11:00","pitch":"4.9999999895","roll":"0.0000000000","yaw":"0.0000000000","airspeed":"114.2890625000","altitude":"2012.9993219372","heading":{"true":30.70999906172208,"mag":44.53629300703458},"vspeed":"-6.9205218750","ilsDeviation":{"loc":"-0.0144449874","gs":-2.5},"onTrack":false,"status":1,"lng":-73.88200583353479,"lat":40.48240526003456,"weather":{"wind":{"heading":"337.1875610352","speed":18},"temp":"16.0390625000","turbulance":"N/A"}},"collectorId":"db8a6add-a6c2-4157-bb3c-b348ba77b199","runId":"0"}
{"data":{"ready":false,"paused":true,"onGround":true,"crashed":false,"sts":"2017-09-22T11:51:43Z","ts":"2017-11-15T16:12:33.548+11:00","pitch":"4.9999999895","roll":"0.0000000000","yaw":"0.0000000000","airspeed":"114.2890625000","altitude":"2012.9993219372","heading":{"true":30.70999906172208,"mag":44.53629300703458},"vspeed":"-6.9205218750","ilsDeviation":{"loc":"-0.0144449874","gs":-2.5},"onTrack":false,"status":1,"lng":-73.88200583353479,"lat":40.48240526003456,"weather":{"wind":{"heading":"337.1875610352","speed":18},"temp":"16.0390625000","turbulance":"N/A"}},"collectorId":"db8a6add-a6c2-4157-bb3c-b348ba77b199","runId":"0"}
{"data":{"ready":false,"paused":true,"onGround":true,"crashed":false,"sts":"2017-09-22T11:51:43Z","ts":"2017-11-15T16:12:33.751+11:00","pitch":"4.9999999895","roll":"0.0000000000","yaw":"0.0000000000","airspeed":"114.2890625000","altitude":"2012.9993219372","heading":{"true":30.70999906172208,"mag":44.53629300703458},"vspeed":"-6.9205218750","ilsDeviation":{"loc":"-0.0144449874","gs":-2.5},"onTrack":false,"status":1,"lng":-73.88200583353479,"lat":40.48240526003456,"weather":{"wind":{"heading":"337.1875610352","speed":18},"temp":"16.0390625000","turbulance":"N/A"}},"collectorId":"db8a6add-a6c2-4157-bb3c-b348ba77b199","runId":"0"}
{"data":{"ready":false,"paused":true,"onGround":true,"crashed":false,"sts":"2017-09-22T11:51:43Z","ts":"2017-11-15T16:12:33.852+11:00","pitch":"4.9999999895","roll":"0.0000000000","yaw":"0.0000000000","airspeed":"114.2890625000","altitude":"2012.9993219372","heading":{"true":30.70999906172208,"mag":44.53629300703458},"vspeed":"-6.9205218750","ilsDeviation":{"loc":"-0.0144449874","gs":-2.5},"onTrack":false,"status":1,"lng":-73.88200583353479,"lat":40.48240526003456,"weather":{"wind":{"heading":"337.1875610352","speed":18},"temp":"16.0390625000","turbulance":"N/A"}},"collectorId":"db8a6add-a6c2-4157-bb3c-b348ba77b199","runId":"0"}
{"data":{"ready":false,"paused":true,"onGround":true,"crashed":false,"sts":"2017-09-22T11:51:43Z","ts":"2017-11-15T16:12:34.155+11:00","pitch":"4.9999999895","roll":"0.0000000000","yaw":"0.0000000000","airspeed":"114.2890625000","altitude":"2012.9993219372","heading":{"true":30.70999906172208,"mag":44.53629300703458},"vspeed":"-6.9205218750","ilsDeviation":{"loc":"-0.0144449874","gs":-2.5},"onTrack":false,"status":1,"lng":-73.88200583353479,"lat":40.48240526003456,"weather":{"wind":{"heading":"337.1875610352","speed":18},"temp":"16.0390625000","turbulance":"N/A"}},"collectorId":"db8a6add-a6c2-4157-bb3c-b348ba77b199","runId":"0"}
{"data":{"ready":false,"paused":true,"onGround":true,"crashed":false,"sts":"2017-09-22T11:51:43Z","ts":"2017-11-15T16:12:34.357+11:00","pitch":"4.9999999895","roll":"0.0000000000","yaw":"0.0000000000","airspeed":"114.2890625000","altitude":"2012.9993219372","heading":{"true":30.70999906172208,"mag":44.53629300703458},"vspeed":"-6.9205218750","ilsDeviation":{"loc":"-0.0144449874","gs":-2.5},"onTrack":false,"status":1,"lng":-73.88200583353479,"lat":40.48240526003456,"weather":{"wind":{"heading":"337.1875610352","speed":18},"temp":"16.0390625000","turbulance":"N/A"}},"collectorId":"db8a6add-a6c2-4157-bb3c-b348ba77b199","runId":"0"}
{"data":{"ready":false,"paused":false,"onGround":true,"crashed":false,"sts":"2017-09-22T11:51:43Z","ts":"2017-11-15T16:12:49.415+11:00","pitch":"4.9999999895","roll":"0.0000000000","yaw":"0.0000000000","airspeed":"114.2890625000","altitude":"2012.9993219372","heading":{"true":30.70999906172208,"mag":44.53629300703458},"vspeed":"-6.9205218750","ilsDeviation":{"loc":"-0.0144449874","gs":-2.5},"onTrack":false,"status":1,"lng":-73.88200583353479,"lat":40.48240526003456,"weather":{"wind":{"heading":"337.1875610352","speed":18},"temp":"16.0390625000","turbulance":"N/A"}},"collectorId":"db8a6add-a6c2-4157-bb3c-b348ba77b199","runId":"0"}
{"data":{"ready":false,"paused":false,"onGround":true,"crashed":false,"sts":"2017-09-22T11:51:43Z","ts":"2017-11-15T16:12:49.775+11:00","pitch":"4.9999999895","roll":"0.0000000000","yaw":"0.0000000000","airspeed":"114.2890625000","altitude":"2012.9993219372","heading":{"true":30.70999906172208,"mag":44.53629300703458},"vspeed":"-6.9205218750","ilsDeviation":{"loc":"-0.0144449874","gs":-2.5},"onTrack":false,"status":1,"lng":-73.88200583353479,"lat":40.48240526003456,"weather":{"wind":{"heading":"337.1875610352","speed":18},"temp":"16.0390625000","turbulance":"N/A"}},"collectorId":"db8a6add-a6c2-4157-bb3c-b348ba77b199","runId":"0"}
{"data":{"ready":false,"paused":true,"onGround":false,"crashed":false,"sts":"2017-09-22T11:51:45Z","ts":"2017-11-15T16:12:49.894+11:00","pitch":"6.9965832329","roll":"-0.1880533174","yaw":"-0.4409364201","airspeed":"173.0312500000","altitude":"2047.0012673007","heading":{"true":29.86890146201093,"mag":43.596318454198425},"vspeed":"1242.6181500000","ilsDeviation":{"loc":"0.0468275303","gs":"-2.5000000000"},"onTrack":false,"status":0,"lng":-73.8813806071309,"lat":40.48323012432497,"weather":{"wind":{"heading":"320.1012573242","speed":14},"temp":"11.9726562500","turbulance":"N/A"}},"collectorId":"db8a6add-a6c2-4157-bb3c-b348ba77b199","runId":"0"}
{"data":{"ready":false,"paused":true,"onGround":false,"crashed":false,"sts":"2017-09-22T11:51:45Z","ts":"2017-11-15T16:12:49.996+11:00","pitch":"6.9965832329","roll":"-0.1880533174","yaw":"-0.4409364201","airspeed":"173.0312500000","altitude":"2047.0012673007","heading":{"true":29.86890146201093,"mag":43.596318454198425},"vspeed":"1242.6181500000","ilsDeviation":{"loc":"0.0468275303","gs":"-2.5000000000"},"onTrack":false,"status":0,"lng":-73.8813806071309,"lat":40.48323012432497,"weather":{"wind":{"heading":"320.1012573242","speed":14},"temp":"11.9726562500","turbulance":"N/A"}},"collectorId":"db8a6add-a6c2-4157-bb3c-b348ba77b199","runId":"0"}
{"data":{"ready":true,"paused":false,"onGround":false,"crashed":false,"sts":"2017-09-22T11:51:45Z","ts":"2017-11-15T16:12:50.102+11:00","pitch":"7.0117360808","roll":"-0.1932044056","yaw":"-0.4409364201","airspeed":"178.5625000000","altitude":"2048.6769376479","heading":{"true":29.86740784510357,"mag":43.59482483729107},"vspeed":"1287.9860156250","ilsDeviation":{"loc":"0.0468275303","gs":"-2.5000000000"},"onTrack":false,"status":0,"lng":-73.8813557426856,"lat":40.48326237173062,"weather":{"wind":{"heading":"320.0966796875","speed":14},"temp":"11.9648437500","turbulance":"N/A"}},"collectorId":"db8a6add-a6c2-4157-bb3c-b348ba77b199","runId":"0"}
{"data":{"ready":true,"paused":false,"onGround":false,"crashed":false,"sts":"2017-09-22T11:51:45Z","ts":"2017-11-15T16:12:50.208+11:00","pitch":"7.0779401326","roll":"-0.2131733906","yaw":"-0.0941836126","airspeed":"177.7656250000","altitude":"2052.9979915300","heading":{"true":29.866995359060518,"mag":43.59441235124802},"vspeed":"1397.1764718750","ilsDeviation":{"loc":"0.0468275303","gs":"-2.5000000000"},"onTrack":false,"status":0,"lng":-73.88129240895803,"lat":40.4833445131308,"weather":{"wind":{"heading":"320.0931396484","speed":14},"temp":"11.9609375000","turbulance":"N/A"}},"collectorId":"db8a6add-a6c2-4157-bb3c-b348ba77b199","runId":"0"}
{"data":{"ready":true,"paused":false,"onGround":false,"crashed":false,"sts":"2017-09-22T11:51:45Z","ts":"2017-11-15T16:12:50.318+11:00","pitch":"7.2005846137","roll":"-0.2368823272","yaw":"-0.1614403833","airspeed":"177.0703125000","altitude":"2057.1096104452","heading":{"true":29.864601665922663,"mag":43.59201865811016},"vspeed":"1490.9879906250","ilsDeviation":{"loc":"0.0470309793","gs":"-2.5000000000"},"onTrack":false,"status":0,"lng":-73.88123306902985,"lat":40.483421475927685,"weather":{"wind":{"heading":"320.0902404785","speed":14},"temp":"11.9531250000","turbulance":"N/A"}},"collectorId":"db8a6add-a6c2-4157-bb3c-b348ba77b199","runId":"0"}
{"data":{"ready":true,"paused":false,"onGround":false,"crashed":false,"sts":"2017-09-22T11:51:45Z","ts":"2017-11-15T16:12:50.425+11:00","pitch":"7.3739486166","roll":"-0.2578802222","yaw":"-0.2279051359","airspeed":"176.3515625000","altitude":"2061.5058040630","heading":{"true":29.858772880216172,"mag":43.58618987240367},"vspeed":"1583.2616156250","ilsDeviation":{"loc":"0.0470309793","gs":"-2.5000000000"},"onTrack":false,"status":0,"lng":-73.88117054958694,"lat":40.48350256431462,"weather":{"wind":{"heading":"320.0867309570","speed":14},"temp":"11.9414062500","turbulance":"N/A"}},"collectorId":"db8a6add-a6c2-4157-bb3c-b348ba77b199","runId":"0"}
{"data":{"ready":true,"paused":false,"onGround":false,"crashed":false,"sts":"2017-09-22T11:51:45Z","ts":"2017-11-15T16:12:50.636+11:00","pitch":"7.7829041781","roll":"-0.2849669175","yaw":"-0.3365319628","airspeed":"175.0078125000","altitude":"2070.0986839767","heading":{"true":29.834608959972623,"mag":43.56202595216013},"vspeed":"1741.6646718750","ilsDeviation":{"loc":"0.0474717861","gs":"-2.5000000000"},"onTrack":false,"status":0,"lng":-73.88105093351241,"lat":40.483657714041044,"weather":{"wind":{"heading":"320.0799865723","speed":14},"temp":"11.9257812500","turbulance":"N/A"}},"collectorId":"db8a6add-a6c2-4157-bb3c-b348ba77b199","runId":"0"}
{"data":{"ready":true,"paused":false,"onGround":false,"crashed":false,"sts":"2017-09-22T11:51:45Z","ts":"2017-11-15T16:12:50.636+11:00","pitch":"7.7829041781","roll":"-0.2849669175","yaw":"-0.3365319628","airspeed":"175.0078125000","altitude":"2070.0986839767","heading":{"true":29.834608959972623,"mag":43.56202595216013},"vspeed":"1741.6646718750","ilsDeviation":{"loc":"0.0474717861","gs":"-2.5000000000"},"onTrack":false,"status":0,"lng":-73.88105093351241,"lat":40.483657714041044,"weather":{"wind":{"heading":"320.0799865723","speed":14},"temp":"11.9257812500","turbulance":"N/A"}},"collectorId":"db8a6add-a6c2-4157-bb3c-b348ba77b199","runId":"0"}
{"data":{"ready":true,"paused":false,"onGround":false,"crashed":false,"sts":"2017-09-22T11:51:45Z","ts":"2017-11-15T16:12:51.177+11:00","pitch":"8.9547878394","roll":"-0.4940002759","yaw":"-0.2239443152","airspeed":"172.2187500000","altitude":"2092.8923572827","heading":{"true":29.71297151150391,"mag":43.44038850369141},"vspeed":"2061.5465718750","ilsDeviation":{"loc":"0.0478786887","gs":"-2.5000000000"},"onTrack":false,"status":0,"lng":-73.88074991993273,"lat":40.48404820356962,"weather":{"wind":{"heading":"320.0632934570","speed":14},"temp":"11.8828125000","turbulance":"N/A"}},"collectorId":"db8a6add-a6c2-4157-bb3c-b348ba77b199","runId":"0"}
{"data":{"ready":true,"paused":false,"onGround":false,"crashed":false,"sts":"2017-09-22T11:51:45Z","ts":"2017-11-15T16:12:51.288+11:00","pitch":"9.1641164175","roll":"-0.5729439520","yaw":"-0.2520854917","airspeed":"171.4843750000","altitude":"2097.4542555234","heading":{"true":29.687590585599104,"mag":43.415007577786604},"vspeed":"2114.6039062500","ilsDeviation":{"loc":"0.0483195003","gs":"-2.5000000000"},"onTrack":false,"status":0,"lng":-73.88069264058176,"lat":40.48412252974391,"weather":{"wind":{"heading":"320.0605163574","speed":14},"temp":"11.8710937500","turbulance":"N/A"}},"collectorId":"db8a6add-a6c2-4157-bb3c-b348ba77b199","runId":"0"}
{"data":{"ready":true,"paused":false,"onGround":false,"crashed":false,"sts":"2017-09-22T11:51:45Z","ts":"2017-11-15T16:12:51.502+11:00","pitch":"9.5278282701","roll":"-0.7087497638","yaw":"-0.4495321001","airspeed":"169.8593750000","altitude":"2107.0678797595","heading":{"true":29.63072668970049,"mag":43.358143681887995},"vspeed":"2219.9496281250","ilsDeviation":{"loc":"0.0483195003","gs":"-2.5000000000"},"onTrack":false,"status":0,"lng":-73.880575578086,"lat":40.484274475692814,"weather":{"wind":{"heading":"320.0545043945","speed":14},"temp":"11.8515625000","turbulance":"N/A"}},"collectorId":"db8a6add-a6c2-4157-bb3c-b348ba77b199","runId":"0"}
{"data":{"ready":true,"paused":false,"onGround":false,"crashed":false,"sts":"2017-09-22T11:51:45Z","ts":"2017-11-15T16:12:51.608+11:00","pitch":"9.6695018446","roll":"-0.7586888229","yaw":"-0.5244007681","airspeed":"169.1250000000","altitude":"2111.8791279578","heading":{"true":29.597933336794465,"mag":43.32535032898197},"vspeed":"2269.9311750000","ilsDeviation":{"loc":"0.0487603071","gs":"-2.5000000000"},"onTrack":false,"status":0,"lng":-73.88051874695705,"lat":40.48434826784724,"weather":{"wind":{"heading":"320.0517883301","speed":14},"temp":"11.8437500000","turbulance":"N/A"}},"collectorId":"db8a6add-a6c2-4157-bb3c-b348ba77b199","runId":"0"}
{"data":{"ready":true,"paused":false,"onGround":false,"crashed":false,"sts":"2017-09-22T11:51:45Z","ts":"2017-11-15T16:12:51.608+11:00","pitch":"9.6695018446","roll":"-0.7586888229","yaw":"-0.5244007681","airspeed":"169.1250000000","altitude":"2111.8791279578","heading":{"true":29.597933336794465,"mag":43.32535032898197},"vspeed":"2269.9311750000","ilsDeviation":{"loc":"0.0487603071","gs":"-2.5000000000"},"onTrack":false,"status":0,"lng":-73.88051874695705,"lat":40.48434826784724,"weather":{"wind":{"heading":"320.0517883301","speed":14},"temp":"11.8437500000","turbulance":"N/A"}},"collectorId":"db8a6add-a6c2-4157-bb3c-b348ba77b199","runId":"0"}
{"data":{"ready":true,"paused":false,"onGround":false,"crashed":false,"sts":"2017-09-22T11:51:45Z","ts":"2017-11-15T16:12:51.822+11:00","pitch":"9.8826521004","roll":"-0.8495390205","yaw":"-0.5976344137","airspeed":"167.8671875000","altitude":"2121.6663941540","heading":{"true":29.51931430167631,"mag":43.24673129386381},"vspeed":"2366.0495343750","ilsDeviation":{"loc":"0.0487603071","gs":"-2.5000000000"},"onTrack":false,"status":0,"lng":-73.88040626536487,"lat":40.48449437654683,"weather":{"wind":{"heading":"320.0463867188","speed":14},"temp":"11.8242187500","turbulance":"N/A"}},"collectorId":"db8a6add-a6c2-4157-bb3c-b348ba77b199","runId":"0"}
{"data":{"ready":true,"paused":false,"onGround":false,"crashed":false,"sts":"2017-09-22T11:51:45Z","ts":"2017-11-15T16:12:51.822+11:00","pitch":"9.8826521004","roll":"-0.8495390205","yaw":"-0.5976344137","airspeed":"167.8671875000","altitude":"2121.6663941540","heading":{"true":29.51931430167631,"mag":43.24673129386381},"vspeed":"2366.0495343750","ilsDeviation":{"loc":"0.0487603071","gs":"-2.5000000000"},"onTrack":false,"status":0,"lng":-73.88040626536487,"lat":40.48449437654683,"weather":{"wind":{"heading":"320.0463867188","speed":14},"temp":"11.8242187500","turbulance":"N/A"}},"collectorId":"db8a6add-a6c2-4157-bb3c-b348ba77b199","runId":"0"}
{"data":{"ready":true,"paused":false,"onGround":false,"crashed":false,"sts":"2017-09-22T11:51:45Z","ts":"2017-11-15T16:12:51.927+11:00","pitch":"9.9685084592","roll":"-0.9220656511","yaw":"-0.6220073480","airspeed":"167.1250000000","altitude":"2127.1306147126","heading":{"true":29.468625877579303,"mag":43.1960428697668},"vspeed":"2415.2621343750","ilsDeviation":{"loc":"0.0492011187","gs":"-2.5000000000"},"onTrack":false,"status":0,"lng":-73.88034478137764,"lat":40.48457427464822,"weather":{"wind":{"heading":"320.0435180664","speed":14},"temp":"11.8125000000","turbulance":"N/A"}},"collectorId":"db8a6add-a6c2-4157-bb3c-b348ba77b199","runId":"0"}
{"data":{"ready":true,"paused":false,"onGround":false,"crashed":false,"sts":"2017-09-22T11:51:46Z","ts":"2017-11-15T16:12:52.141+11:00","pitch":"10.0769299253","roll":"-1.0984840289","yaw":"-0.6699564462","airspeed":"165.7500000000","altitude":"2137.1803810824","heading":{"true":29.36448710800375,"mag":43.09190410019125},"vspeed":"2495.2326093750","ilsDeviation":{"loc":"0.0492011187","gs":"-2.5000000000"},"onTrack":false,"status":0,"lng":-73.88023329814364,"lat":40.48471921207173,"weather":{"wind":{"heading":"320.0381774902","speed":14},"temp":"11.7929687500","turbulance":"N/A"}},"collectorId":"db8a6add-a6c2-4157-bb3c-b348ba77b199","runId":"0"}
{"data":{"ready":true,"paused":false,"onGround":false,"crashed":false,"sts":"2017-09-22T11:51:46Z","ts":"2017-11-15T16:12:52.141+11:00","pitch":"10.0769299253","roll":"-1.0984840289","yaw":"-0.6699564462","airspeed":"165.7500000000","altitude":"2137.1803810824","heading":{"true":29.36448710800375,"mag":43.09190410019125},"vspeed":"2495.2326093750","ilsDeviation":{"loc":"0.0492011187","gs":"-2.5000000000"},"onTrack":false,"status":0,"lng":-73.88023329814364,"lat":40.48471921207173,"weather":{"wind":{"heading":"320.0381774902","speed":14},"temp":"11.7929687500","turbulance":"N/A"}},"collectorId":"db8a6add-a6c2-4157-bb3c-b348ba77b199","runId":"0"}
{"data":{"ready":true,"paused":false,"onGround":false,"crashed":false,"sts":"2017-09-22T11:51:46Z","ts":"2017-11-15T16:12:52.252+11:00","pitch":"10.1070621942","roll":"-1.2038653697","yaw":"-0.6903007885","airspeed":"165.0390625000","altitude":"2142.5159870536","heading":{"true":29.304173618401478,"mag":43.03159061058898},"vspeed":"2532.1420593750","ilsDeviation":{"loc":"0.0497097434","gs":"-2.5000000000"},"onTrack":false,"status":0,"lng":-73.88017478918735,"lat":40.484795318325624,"weather":{"wind":{"heading":"320.0350036621","speed":14},"temp":"11.7851562500","turbulance":"N/A"}},"collectorId":"db8a6add-a6c2-4157-bb3c-b348ba77b199","runId":"0"}
{"data":{"ready":true,"paused":false,"onGround":false,"crashed":false,"sts":"2017-09-22T11:51:46Z","ts":"2017-11-15T16:12:52.355+11:00","pitch":"10.1172779505","roll":"-1.3142204322","yaw":"-0.7954234290","airspeed":"164.8046875000","altitude":"2147.8070130750","heading":{"true":29.240978091079597,"mag":42.9683950832671},"vspeed":"2565.9757218750","ilsDeviation":{"loc":"0.0497097434","gs":"-2.5000000000"},"onTrack":false,"status":0,"lng":-73.8801171518071,"lat":40.48487032144673,"weather":{"wind":{"heading":"320.0318908691","speed":14},"temp":"11.7734375000","turbulance":"N/A"}},"collectorId":"db8a6add-a6c2-4157-bb3c-b348ba77b199","runId":"0"}
{"data":{"ready":true,"paused":false,"onGround":false,"crashed":false,"sts":"2017-09-22T11:51:46Z","ts":"2017-11-15T16:12:52.463+11:00","pitch":"10.1070442564","roll":"-1.4351058334","yaw":"-0.8494433650","airspeed":"164.2187500000","altitude":"2153.1137663664","heading":{"true":29.173347647266805,"mag":42.90076463945431},"vspeed":"2595.9646500000","ilsDeviation":{"loc":"0.0497097434","gs":"-2.5000000000"},"onTrack":false,"status":0,"lng":-73.88005968650987,"lat":40.48494513388997,"weather":{"wind":{"heading":"320.0288085938","speed":14},"temp":"11.7617187500","turbulance":"N/A"}},"collectorId":"db8a6add-a6c2-4157-bb3c-b348ba77b199","runId":"0"}
{"data":{"ready":true,"paused":false,"onGround":false,"crashed":false,"sts":"2017-09-22T11:51:46Z","ts":"2017-11-15T16:12:52.669+11:00","pitch":"10.0242086600","roll":"-1.6642479074","yaw":"-0.8422657924","airspeed":"162.2343750000","altitude":"2163.2764468735","heading":{"true":29.032347160106205,"mag":42.759764152293705},"vspeed":"2646.7151437500","ilsDeviation":{"loc":"0.0502522771","gs":"-2.5000000000"},"onTrack":false,"status":0,"lng":-73.87995061002523,"lat":40.48508724470758,"weather":{"wind":{"heading":"320.0228576660","speed":14},"temp":"11.7421875000","turbulance":"N/A"}},"collectorId":"db8a6add-a6c2-4157-bb3c-b348ba77b199","runId":"0"}
{"data":{"ready":true,"paused":false,"onGround":false,"crashed":false,"sts":"2017-09-22T11:51:46Z","ts":"2017-11-15T16:12:52.669+11:00","pitch":"10.0242086600","roll":"-1.6642479074","yaw":"-0.8422657924","airspeed":"162.2343750000","altitude":"2163.2764468735","heading":{"true":29.032347160106205,"mag":42.759764152293705},"vspeed":"2646.7151437500","ilsDeviation":{"loc":"0.0502522771","gs":"-2.5000000000"},"onTrack":false,"status":0,"lng":-73.87995061002523,"lat":40.48508724470758,"weather":{"wind":{"heading":"320.0228576660","speed":14},"temp":"11.7421875000","turbulance":"N/A"}},"collectorId":"db8a6add-a6c2-4157-bb3c-b348ba77b199","runId":"0"}
{"data":{"ready":true,"paused":false,"onGround":false,"crashed":false,"sts":"2017-09-22T11:51:46Z","ts":"2017-11-15T16:12:52.776+11:00","pitch":"9.9433759805","roll":"-1.7594880932","yaw":"-0.2423968943","airspeed":"160.6406250000","altitude":"2168.7290696680","heading":{"true":28.954135246449358,"mag":42.681552238636854},"vspeed":"2669.7835500000","ilsDeviation":{"loc":"0.0502522771","gs":"-2.5000000000"},"onTrack":false,"status":0,"lng":-73.87989256816407,"lat":40.48516293075464,"weather":{"wind":{"heading":"320.0197448730","speed":14},"temp":"11.7343750000","turbulance":"N/A"}},"collectorId":"db8a6add-a6c2-4157-bb3c-b348ba77b199","runId":"0"}
{"data":{"ready":true,"paused":false,"onGround":false,"crashed":false,"sts":"2017-09-22T11:51:46Z","ts":"2017-11-15T16:12:52.994+11:00","pitch":"9.7312648610","roll":"-1.8948887952","yaw":"0.2313423147","airspeed":"159.5234375000","altitude":"2178.7975236738","heading":{"true":28.837008573010255,"mag":42.56442556519775},"vspeed":"2705.1551062500","ilsDeviation":{"loc":"0.0508287197","gs":"-2.5000000000"},"onTrack":false,"status":0,"lng":-73.87978585928846,"lat":40.48530221912341,"weather":{"wind":{"heading":"320.0147094727","speed":14},"temp":"11.7148437500","turbulance":"N/A"}},"collectorId":"db8a6add-a6c2-4157-bb3c-b348ba77b199","runId":"0"}
{"data":{"ready":true,"paused":false,"onGround":false,"crashed":false,"sts":"2017-09-22T11:51:46Z","ts":"2017-11-15T16:12:52.994+11:00","pitch":"9.7312648610","roll":"-1.8948887952","yaw":"0.2313423147","airspeed":"159.5234375000","altitude":"2178.7975236738","heading":{"true":28.837008573010255,"mag":42.56442556519775},"vspeed":"2705.1551062500","ilsDeviation":{"loc":"0.0508287197","gs":"-2.5000000000"},"onTrack":false,"status":0,"lng":-73.87978585928846,"lat":40.48530221912341,"weather":{"wind":{"heading":"320.0147094727","speed":14},"temp":"11.7148437500","turbulance":"N/A"}},"collectorId":"db8a6add-a6c2-4157-bb3c-b348ba77b199","runId":"0"}
{"data":{"ready":true,"paused":false,"onGround":false,"crashed":false,"sts":"2017-09-22T11:51:47Z","ts":"2017-11-15T16:12:53.107+11:00","pitch":"9.5875652348","roll":"-1.9664433467","yaw":"0.0843262102","airspeed":"159.9062500000","altitude":"2184.0855248569","heading":{"true":28.794131985789516,"mag":42.52154897797702},"vspeed":"2719.7650968750","ilsDeviation":{"loc":"0.0508287197","gs":"-2.5000000000"},"onTrack":false,"status":0,"lng":-73.87972993698764,"lat":40.48537529517347,"weather":{"wind":{"heading":"320.0116882324","speed":14},"temp":"11.6992187500","turbulance":"N/A"}},"collectorId":"db8a6add-a6c2-4157-bb3c-b348ba77b199","runId":"0"}
{"data":{"ready":true,"paused":false,"onGround":false,"crashed":false,"sts":"2017-09-22T11:51:47Z","ts":"2017-11-15T16:12:53.107+11:00","pitch":"9.5875652348","roll":"-1.9664433467","yaw":"0.0843262102","airspeed":"159.9062500000","altitude":"2184.0855248569","heading":{"true":28.794131985789516,"mag":42.52154897797702},"vspeed":"2719.7650968750","ilsDeviation":{"loc":"0.0508287197","gs":"-2.5000000000"},"onTrack":false,"status":0,"lng":-73.87972993698764,"lat":40.48537529517347,"weather":{"wind":{"heading":"320.0116882324","speed":14},"temp":"11.6992187500","turbulance":"N/A"}},"collectorId":"db8a6add-a6c2-4157-bb3c-b348ba77b199","runId":"0"}
{"data":{"ready":true,"paused":false,"onGround":false,"crashed":false,"sts":"2017-09-22T11:51:47Z","ts":"2017-11-15T16:12:53.326+11:00","pitch":"9.2746485112","roll":"-2.1262016807","yaw":"-0.9040838237","airspeed":"158.9218750000","altitude":"2193.9467162874","heading":{"true":28.72484070099786,"mag":42.45225769318536},"vspeed":"2736.6819281250","ilsDeviation":{"loc":"0.0514729802","gs":"-2.5000000000"},"onTrack":false,"status":0,"lng":-73.8796251599921,"lat":40.48551235394262,"weather":{"wind":{"heading":"320.0063476563","speed":14},"temp":"11.6796875000","turbulance":"N/A"}},"collectorId":"db8a6add-a6c2-4157-bb3c-b348ba77b199","runId":"0"}
{"data":{"ready":true,"paused":false,"onGround":false,"crashed":false,"sts":"2017-09-22T11:51:47Z","ts":"2017-11-15T16:12:53.428+11:00","pitch":"9.0867630046","roll":"-2.2168592564","yaw":"-1.0711093337","airspeed":"158.6171875000","altitude":"2199.3450413342","heading":{"true":28.67637866214561,"mag":42.40379565433311},"vspeed":"2738.2198218750","ilsDeviation":{"loc":"0.0514729802","gs":"-2.5000000000"},"onTrack":false,"status":0,"lng":-73.87956706791385,"lat":40.485588418309554,"weather":{"wind":{"heading":"320.0037231445","speed":14},"temp":"11.6679687500","turbulance":"N/A"}},"collectorId":"db8a6add-a6c2-4157-bb3c-b348ba77b199","runId":"0"}
{"data":{"ready":true,"paused":false,"onGround":false,"crashed":false,"sts":"2017-09-22T11:51:47Z","ts":"2017-11-15T16:12:53.533+11:00","pitch":"8.8950337751","roll":"-2.3125265970","yaw":"-1.1260678740","airspeed":"158.3906250000","altitude":"2204.6164352964","heading":{"true":28.61819750996442,"mag":42.34561450215192},"vspeed":"2735.1440343750","ilsDeviation":{"loc":"0.0522528765","gs":"-2.5000000000"},"onTrack":false,"status":0,"lng":-73.87950961918101,"lat":40.48566369220103,"weather":{"wind":{"heading":"320.0010070801","speed":14},"temp":"11.6601562500","turbulance":"N/A"}},"collectorId":"db8a6add-a6c2-4157-bb3c-b348ba77b199","runId":"0"}
{"data":{"ready":true,"paused":false,"onGround":false,"crashed":false,"sts":"2017-09-22T11:51:48Z","ts":"2017-11-15T16:12:53.639+11:00","pitch":"8.7183075206","roll":"-2.4105375054","yaw":"-0.7988209686","airspeed":"158.5546875000","altitude":"2209.3070487613","heading":{"true":28.55873120516953,"mag":42.28614819735703},"vspeed":"2727.4545656250","ilsDeviation":{"loc":"0.0522528765","gs":"-2.5000000000"},"onTrack":false,"status":0,"lng":-73.87945779019978,"lat":40.485731648388395,"weather":{"wind":{"heading":"319.9986267090","speed":14},"temp":"11.6484375000","turbulance":"N/A"}},"collectorId":"db8a6add-a6c2-4157-bb3c-b348ba77b199","runId":"0"}
{"data":{"ready":true,"paused":false,"onGround":false,"crashed":false,"sts":"2017-09-22T11:51:48Z","ts":"2017-11-15T16:12:53.744+11:00","pitch":"8.5487470899","roll":"-2.5221076457","yaw":"-0.5954608044","airspeed":"158.5000000000","altitude":"2213.6654589536","heading":{"true":28.501367732596137,"mag":42.22878472478364},"vspeed":"2715.9203625000","ilsDeviation":{"loc":"0.0522528765","gs":"-2.5000000000"},"onTrack":false,"status":0,"lng":-73.87940897261878,"lat":40.48579569824463,"weather":{"wind":{"heading":"319.9967041016","speed":14},"temp":"11.6406250000","turbulance":"N/A"}},"collectorId":"db8a6add-a6c2-4157-bb3c-b348ba77b199","runId":"0"}
{"data":{"ready":true,"paused":false,"onGround":false,"crashed":false,"sts":"2017-09-22T11:51:48Z","ts":"2017-11-15T16:12:53.855+11:00","pitch":"8.3453318735","roll":"-2.6698510768","yaw":"-0.4448593634","airspeed":"158.2500000000","altitude":"2218.7129860339","heading":{"true":28.43639636107428,"mag":42.16381335326178},"vspeed":"2699.0035312500","ilsDeviation":{"loc":"0.0530327681","gs":"-2.5000000000"},"onTrack":false,"status":0,"lng":-73.87935154903833,"lat":40.48587109735051,"weather":{"wind":{"heading":"319.9941101074","speed":14},"temp":"11.6328125000","turbulance":"N/A"}},"collectorId":"db8a6add-a6c2-4157-bb3c-b348ba77b199","runId":"0"}
{"data":{"ready":true,"paused":false,"onGround":false,"crashed":false,"sts":"2017-09-22T11:51:48Z","ts":"2017-11-15T16:12:53.967+11:00","pitch":"8.1513263850","roll":"-2.8106890339","yaw":"-0.3630491411","airspeed":"157.9140625000","altitude":"2223.3558919521","heading":{"true":28.380194991020876,"mag":42.10761198320837},"vspeed":"2678.2419656250","ilsDeviation":{"loc":"0.0530327681","gs":"-2.5000000000"},"onTrack":false,"status":0,"lng":-73.87929779743283,"lat":40.48594173485787,"weather":{"wind":{"heading":"319.9920043945","speed":14},"temp":"11.6250000000","turbulance":"N/A"}},"collectorId":"db8a6add-a6c2-4157-bb3c-b348ba77b199","runId":"0"}
{"data":{"ready":true,"paused":false,"onGround":false,"crashed":false,"sts":"2017-09-22T11:51:48Z","ts":"2017-11-15T16:12:54.092+11:00","pitch":"7.9547492501","roll":"-2.9436641906","yaw":"-0.3206884882","airspeed":"157.5078125000","altitude":"2227.8979929782","heading":{"true":28.329420230686445,"mag":42.056837222873945},"vspeed":"2654.4046125000","ilsDeviation":{"loc":"0.0530327681","gs":"-2.5000000000"},"onTrack":false,"status":0,"lng":-73.87924424098226,"lat":40.486012177967936,"weather":{"wind":{"heading":"319.9898681641","speed":14},"temp":"11.6171875000","turbulance":"N/A"}},"collectorId":"db8a6add-a6c2-4157-bb3c-b348ba77b199","runId":"0"}
{"data":{"ready":true,"paused":false,"onGround":false,"crashed":false,"sts":"2017-09-22T11:51:48Z","ts":"2017-11-15T16:12:54.092+11:00","pitch":"7.9547492501","roll":"-2.9436641906","yaw":"-0.3206884882","airspeed":"157.5078125000","altitude":"2227.8979929782","heading":{"true":28.329420230686445,"mag":42.056837222873945},"vspeed":"2654.4046125000","ilsDeviation":{"loc":"0.0530327681","gs":"-2.5000000000"},"onTrack":false,"status":0,"lng":-73.87924424098226,"lat":40.486012177967936,"weather":{"wind":{"heading":"319.9898681641","speed":14},"temp":"11.6171875000","turbulance":"N/A"}},"collectorId":"db8a6add-a6c2-4157-bb3c-b348ba77b199","runId":"0"}
{"data":{"ready":true,"paused":false,"onGround":false,"crashed":false,"sts":"2017-09-22T11:51:48Z","ts":"2017-11-15T16:12:54.202+11:00","pitch":"7.7852290538","roll":"-3.0463466439","yaw":"-0.3066842498","airspeed":"157.0156250000","altitude":"2231.6891340234","heading":{"true":28.290318381115917,"mag":42.01773537330342},"vspeed":"2630.5672593750","ilsDeviation":{"loc":"0.0539143865","gs":"-2.5000000000"},"onTrack":false,"status":0,"lng":-73.87919871436253,"lat":40.48607211138669,"weather":{"wind":{"heading":"319.9877624512","speed":14},"temp":"11.6054687500","turbulance":"N/A"}},"collectorId":"db8a6add-a6c2-4157-bb3c-b348ba77b199","runId":"0"}
{"data":{"ready":true,"paused":false,"onGround":false,"crashed":false,"sts":"2017-09-22T11:51:48Z","ts":"2017-11-15T16:12:54.414+11:00","pitch":"7.3597447968","roll":"-3.2179160266","yaw":"-0.4489433691","airspeed":"155.4687500000","altitude":"2240.3789463895","heading":{"true":28.209214035862335,"mag":41.93663102804983},"vspeed":"2569.8204562500","ilsDeviation":{"loc":"0.0539143865","gs":"-2.5000000000"},"onTrack":false,"status":0,"lng":-73.879092013867,"lat":40.48621279476671,"weather":{"wind":{"heading":"319.9828796387","speed":14},"temp":"11.5898437500","turbulance":"N/A"}},"collectorId":"db8a6add-a6c2-4157-bb3c-b348ba77b199","runId":"0"}
{"data":{"ready":true,"paused":false,"onGround":false,"crashed":false,"sts":"2017-09-22T11:51:48Z","ts":"2017-11-15T16:12:54.519+11:00","pitch":"7.1378456626","roll":"-3.2543846209","yaw":"-0.4818539176","airspeed":"155.0468750000","altitude":"2244.4047068162","heading":{"true":28.17337770778442,"mag":41.900794699971925},"vspeed":"2540.6004750000","ilsDeviation":{"loc":"0.0548977317","gs":"-2.5000000000"},"onTrack":false,"status":0,"lng":-73.87904181010174,"lat":40.48627910995419,"weather":{"wind":{"heading":"319.9805603027","speed":14},"temp":"11.5859375000","turbulance":"N/A"}},"collectorId":"db8a6add-a6c2-4157-bb3c-b348ba77b199","runId":"0"}
{"data":{"ready":true,"paused":false,"onGround":false,"crashed":false,"sts":"2017-09-22T11:51:48Z","ts":"2017-11-15T16:12:54.625+11:00","pitch":"6.9069692361","roll":"-3.2616090361","yaw":"-0.7817754972","airspeed":"152.9843750000","altitude":"2248.3708421024","heading":{"true":28.136643063729398,"mag":41.864060055916894},"vspeed":"2511.3804937500","ilsDeviation":{"loc":"0.0548977317","gs":"-2.5000000000"},"onTrack":false,"status":0,"lng":-73.87899182279001,"lat":40.486345219498965,"weather":{"wind":{"heading":"319.9782409668","speed":14},"temp":"11.5742187500","turbulance":"N/A"}},"collectorId":"db8a6add-a6c2-4157-bb3c-b348ba77b199","runId":"0"}
{"data":{"ready":true,"paused":false,"onGround":false,"crashed":false,"sts":"2017-09-22T11:51:49Z","ts":"2017-11-15T16:12:54.737+11:00","pitch":"6.6535636618","roll":"-3.2285445203","yaw":"-0.9452998440","airspeed":"151.6250000000","altitude":"2252.6594777433","heading":{"true":28.09043699914308,"mag":41.81785399133058},"vspeed":"2476.0089375000","ilsDeviation":{"loc":"0.0548977317","gs":"-2.5000000000"},"onTrack":false,"status":0,"lng":-73.87893670778399,"lat":40.48641819382573,"weather":{"wind":{"heading":"319.9757385254","speed":14},"temp":"11.5664062500","turbulance":"N/A"}},"collectorId":"db8a6add-a6c2-4157-bb3c-b348ba77b199","runId":"0"}
{"data":{"ready":true,"paused":false,"onGround":false,"crashed":false,"sts":"2017-09-22T11:51:49Z","ts":"2017-11-15T16:12:54.851+11:00","pitch":"6.4159558587","roll":"-3.1640127092","yaw":"-1.2329268350","airspeed":"150.7968750000","altitude":"2256.7955967496","heading":{"true":28.035573002553782,"mag":41.76298999474128},"vspeed":"2436.7926468750","ilsDeviation":{"loc":"0.0560167080","gs":"-2.5000000000"},"onTrack":false,"status":0,"lng":-73.87888187885687,"lat":40.48649086313041,"weather":{"wind":{"heading":"319.9732666016","speed":15},"temp":"11.5585937500","turbulance":"N/A"}},"collectorId":"db8a6add-a6c2-4157-bb3c-b348ba77b199","runId":"0"}
{"data":{"ready":true,"paused":false,"onGround":false,"crashed":false,"sts":"2017-09-22T11:51:49Z","ts":"2017-11-15T16:12:54.955+11:00","pitch":"6.2260541914","roll":"-3.0890864343","yaw":"-1.3305095659","airspeed":"150.2187500000","altitude":"2260.2480870759","heading":{"true":27.978371054183796,"mag":41.705788046371296},"vspeed":"2398.3453031250","ilsDeviation":{"loc":"0.0560167080","gs":"-2.5000000000"},"onTrack":false,"status":0,"lng":-73.87883446753868,"lat":40.486553754508044,"weather":{"wind":{"heading":"319.9702453613","speed":15},"temp":"11.5507812500","turbulance":"N/A"}},"collectorId":"db8a6add-a6c2-4157-bb3c-b348ba77b199","runId":"0"}
{"data":{"ready":true,"paused":false,"onGround":false,"crashed":false,"sts":"2017-09-22T11:51:49Z","ts":"2017-11-15T16:12:55.059+11:00","pitch":"6.0421829007","roll":"-2.9967971037","yaw":"-1.3946745724","airspeed":"149.6875000000","altitude":"2263.7331269176","heading":{"true":27.908148008600723,"mag":41.63556500078822},"vspeed":"2353.7463843750","ilsDeviation":{"loc":"0.0560167080","gs":"-2.5000000000"},"onTrack":false,"status":0,"lng":-73.87878480051434,"lat":40.486619686623904,"weather":{"wind":{"heading":"319.9668579102","speed":15},"temp":"11.5468750000","turbulance":"N/A"}},"collectorId":"db8a6add-a6c2-4157-bb3c-b348ba77b199","runId":"0"}
{"data":{"ready":true,"paused":false,"onGround":false,"crashed":false,"sts":"2017-09-22T11:51:49Z","ts":"2017-11-15T16:12:55.172+11:00","pitch":"5.8577638359","roll":"-2.8863263674","yaw":"-1.4434977787","airspeed":"149.2109375000","altitude":"2267.3407312159","heading":{"true":27.82082644839385,"mag":41.548243440581345},"vspeed":"2300.6890500000","ilsDeviation":{"loc":"0.0560167080","gs":"-2.5000000000"},"onTrack":false,"status":0,"lng":-73.87873115297353,"lat":40.48669095511846,"weather":{"wind":{"heading":"319.9633483887","speed":15},"temp":"11.5351562500","turbulance":"N/A"}},"collectorId":"db8a6add-a6c2-4157-bb3c-b348ba77b199","runId":"0"}
{"data":{"ready":true,"paused":false,"onGround":false,"crashed":false,"sts":"2017-09-22T11:51:49Z","ts":"2017-11-15T16:12:55.172+11:00","pitch":"5.8577638359","roll":"-2.8863263674","yaw":"-1.4434977787","airspeed":"149.2109375000","altitude":"2267.3407312159","heading":{"true":27.82082644839385,"mag":41.548243440581345},"vspeed":"2300.6890500000","ilsDeviation":{"loc":"0.0560167080","gs":"-2.5000000000"},"onTrack":false,"status":0,"lng":-73.87873115297353,"lat":40.48669095511846,"weather":{"wind":{"heading":"319.9633483887","speed":15},"temp":"11.5351562500","turbulance":"N/A"}},"collectorId":"db8a6add-a6c2-4157-bb3c-b348ba77b199","runId":"0"}
{"data":{"ready":true,"paused":false,"onGround":false,"crashed":false,"sts":"2017-09-22T11:51:49Z","ts":"2017-11-15T16:12:55.407+11:00","pitch":"5.5263085428","roll":"-2.6607855204","yaw":"-1.6789822291","airspeed":"148.8750000000","altitude":"2273.7907071793","heading":{"true":27.62156241242936,"mag":41.348979404616856},"vspeed":"2188.4228062500","ilsDeviation":{"loc":"0.0572374111","gs":"-2.5000000000"},"onTrack":false,"status":0,"lng":-73.87862839640101,"lat":40.48682760353138,"weather":{"wind":{"heading":"319.9569702148","speed":15},"temp":"11.5273437500","turbulance":"N/A"}},"collectorId":"db8a6add-a6c2-4157-bb3c-b348ba77b199","runId":"0"}
{"data":{"ready":true,"paused":false,"onGround":false,"crashed":false,"sts":"2017-09-22T11:51:49Z","ts":"2017-11-15T16:12:55.519+11:00","pitch":"5.3602786774","roll":"-2.5403919843","yaw":"-1.7653875795","airspeed":"148.6562500000","altitude":"2276.7118699964","heading":{"true":27.50986905443641,"mag":41.23728604662391},"vspeed":"2130.7517906250","ilsDeviation":{"loc":"0.0572374111","gs":"-2.5000000000"},"onTrack":false,"status":0,"lng":-73.8785788077005,"lat":40.48689361583748,"weather":{"wind":{"heading":"319.9540405273","speed":15},"temp":"11.5195312500","turbulance":"N/A"}},"collectorId":"db8a6add-a6c2-4157-bb3c-b348ba77b199","runId":"0"}
{"data":{"ready":true,"paused":false,"onGround":false,"crashed":false,"sts":"2017-09-22T11:51:49Z","ts":"2017-11-15T16:12:55.627+11:00","pitch":"5.1880553187","roll":"-2.4154448404","yaw":"-1.6370410416","airspeed":"148.7968750000","altitude":"2279.4023465594","heading":{"true":27.39406299014347,"mag":41.12147998233097},"vspeed":"2076.1565625000","ilsDeviation":{"loc":"0.0584920232","gs":"-2.5000000000"},"onTrack":false,"status":0,"lng":-73.87853154771608,"lat":40.48695657247561,"weather":{"wind":{"heading":"319.9509277344","speed":15},"temp":"11.5117187500","turbulance":"N/A"}},"collectorId":"db8a6add-a6c2-4157-bb3c-b348ba77b199","runId":"0"}
{"data":{"ready":true,"paused":false,"onGround":false,"crashed":false,"sts":"2017-09-22T11:51:49Z","ts":"2017-11-15T16:12:55.732+11:00","pitch":"4.9756556014","roll":"-2.2751099805","yaw":"-1.3850512907","airspeed":"148.9453125000","altitude":"2282.3249895835","heading":{"true":27.256663981407115,"mag":40.984080973594615},"vspeed":"2013.8718656250","ilsDeviation":{"loc":"0.0584920232","gs":"-2.5000000000"},"onTrack":false,"status":0,"lng":-73.87847846492613,"lat":40.48702733267772,"weather":{"wind":{"heading":"319.9481506348","speed":15},"temp":"11.5078125000","turbulance":"N/A"}},"collectorId":"db8a6add-a6c2-4157-bb3c-b348ba77b199","runId":"0"}
{"data":{"ready":true,"paused":false,"onGround":false,"crashed":false,"sts":"2017-09-22T11:51:50Z","ts":"2017-11-15T16:12:55.837+11:00","pitch":"4.7635034093","roll":"-2.1533119298","yaw":"-1.2946849038","airspeed":"148.8984375000","altitude":"2284.9225819582","heading":{"true":27.126856442587634,"mag":40.85427343477514},"vspeed":"1957.7387437500","ilsDeviation":{"loc":"0.0584920232","gs":"-2.5000000000"},"onTrack":false,"status":0,"lng":-73.87842963122786,"lat":40.487092475475286,"weather":{"wind":{"heading":"319.9453430176","speed":15},"temp":"11.5000000000","turbulance":"N/A"}},"collectorId":"db8a6add-a6c2-4157-bb3c-b348ba77b199","runId":"0"}
{"data":{"ready":true,"paused":false,"onGround":false,"crashed":false,"sts":"2017-09-22T11:51:50Z","ts":"2017-11-15T16:12:55.941+11:00","pitch":"4.5230025878","roll":"-2.0318505067","yaw":"-1.2304346980","airspeed":"148.7968750000","altitude":"2287.5926651976","heading":{"true":26.98690649141109,"mag":40.71432348359859},"vspeed":"1897.7608875000","ilsDeviation":{"loc":"0.0598144531","gs":"-2.5000000000"},"onTrack":false,"status":0,"lng":-73.87837764067525,"lat":40.48716187240487,"weather":{"wind":{"heading":"319.9427185059","speed":15},"temp":"11.4960937500","turbulance":"N/A"}},"collectorId":"db8a6add-a6c2-4157-bb3c-b348ba77b199","runId":"0"}
{"data":{"ready":true,"paused":false,"onGround":false,"crashed":false,"sts":"2017-09-22T11:51:50Z","ts":"2017-11-15T16:12:56.056+11:00","pitch":"4.2975025619","roll":"-1.9284748489","yaw":"-1.1800637367","airspeed":"148.7421875000","altitude":"2289.9043804871","heading":{"true":26.860556257881523,"mag":40.58797325006903},"vspeed":"1844.7035531250","ilsDeviation":{"loc":"0.0598144531","gs":"-2.5000000000"},"onTrack":false,"status":0,"lng":-73.87833095690897,"lat":40.48722422173486,"weather":{"wind":{"heading":"319.9403076172","speed":15},"temp":"11.4960937500","turbulance":"N/A"}},"collectorId":"db8a6add-a6c2-4157-bb3c-b348ba77b199","runId":"0"}
{"data":{"ready":true,"paused":false,"onGround":false,"crashed":false,"sts":"2017-09-22T11:51:50Z","ts":"2017-11-15T16:12:56.16+11:00","pitch":"4.0586554566","roll":"-1.8279033585","yaw":"-1.3701659917","airspeed":"148.3125000000","altitude":"2292.2187175489","heading":{"true":26.728409845243867,"mag":40.45582683743137},"vspeed":"1788.5704312500","ilsDeviation":{"loc":"0.0598144531","gs":"-2.5000000000"},"onTrack":false,"status":0,"lng":-73.87828225118452,"lat":40.48728930456403,"weather":{"wind":{"heading":"319.9375305176","speed":15},"temp":"11.4882812500","turbulance":"N/A"}},"collectorId":"db8a6add-a6c2-4157-bb3c-b348ba77b199","runId":"0"}
{"data":{"ready":true,"paused":false,"onGround":false,"crashed":false,"sts":"2017-09-22T11:51:50Z","ts":"2017-11-15T16:12:56.275+11:00","pitch":"3.8113741392","roll":"-1.7264948258","yaw":"-1.5521421333","airspeed":"147.9218750000","altitude":"2294.5305958764","heading":{"true":26.586100819246024,"mag":40.31351781143353},"vspeed":"1727.8236281250","ilsDeviation":{"loc":"0.0611707920","gs":"-2.5000000000"},"onTrack":false,"status":0,"lng":-73.8782309044342,"lat":40.48735794347805,"weather":{"wind":{"heading":"319.9349975586","speed":15},"temp":"11.4804687500","turbulance":"N/A"}},"collectorId":"db8a6add-a6c2-4157-bb3c-b348ba77b199","runId":"0"}
{"data":{"ready":true,"paused":false,"onGround":false,"crashed":false,"sts":"2017-09-22T11:51:50Z","ts":"2017-11-15T16:12:56.377+11:00","pitch":"3.5985222882","roll":"-1.6362693504","yaw":"-1.5837108456","airspeed":"147.6796875000","altitude":"2296.4673142925","heading":{"true":26.455528911349816,"mag":40.182945903537316},"vspeed":"1672.4594531250","ilsDeviation":{"loc":"0.0611707920","gs":"-2.5000000000"},"onTrack":false,"status":0,"lng":-73.87818526052634,"lat":40.48741897938284,"weather":{"wind":{"heading":"319.9326477051","speed":15},"temp":"11.4804687500","turbulance":"N/A"}},"collectorId":"db8a6add-a6c2-4157-bb3c-b348ba77b199","runId":"0"}
{"data":{"ready":true,"paused":false,"onGround":false,"crashed":false,"sts":"2017-09-22T11:51:50Z","ts":"2017-11-15T16:12:56.487+11:00","pitch":"3.3543292096","roll":"-1.5260212443","yaw":"-1.5964574254","airspeed":"147.2578125000","altitude":"2298.6177124409","heading":{"true":26.29594827914538,"mag":40.02336527133288},"vspeed":"1604.7921281250","ilsDeviation":{"loc":"0.0611707920","gs":"-2.5000000000"},"onTrack":false,"status":0,"lng":-73.87813119875021,"lat":40.48749129461673,"weather":{"wind":{"heading":"319.9297485352","speed":15},"temp":"11.4765625000","turbulance":"N/A"}},"collectorId":"db8a6add-a6c2-4157-bb3c-b348ba77b199","runId":"0"}
{"data":{"ready":true,"paused":false,"onGround":false,"crashed":false,"sts":"2017-09-22T11:51:50Z","ts":"2017-11-15T16:12:56.596+11:00","pitch":"3.1298008436","roll":"-1.4113445921","yaw":"-1.4203236990","airspeed":"147.4765625000","altitude":"2300.4745945056","heading":{"true":26.145511241234814,"mag":39.872928233422314},"vspeed":"1543.2763781250","ilsDeviation":{"loc":"0.0625610352","gs":"-2.5000000000"},"onTrack":false,"status":0,"lng":-73.8780817118561,"lat":40.48755751323059,"weather":{"wind":{"heading":"319.9265136719","speed":15},"temp":"11.4687500000","turbulance":"N/A"}},"collectorId":"db8a6add-a6c2-4157-bb3c-b348ba77b199","runId":"0"}
{"data":{"ready":true,"paused":false,"onGround":false,"crashed":false,"sts":"2017-09-22T11:51:50Z","ts":"2017-11-15T16:12:56.71+11:00","pitch":"2.9177684325","roll":"-1.3022937935","yaw":"-0.3403114030","airspeed":"148.0312500000","altitude":"2302.0987373871","heading":{"true":26.00991565400145,"mag":39.737332646188946},"vspeed":"1488.6811500000","ilsDeviation":{"loc":"0.0625610352","gs":"-2.5000000000"},"onTrack":false,"status":0,"lng":-73.87803649899857,"lat":40.48761803431033,"weather":{"wind":{"heading":"319.9238586426","speed":14},"temp":"11.4687500000","turbulance":"N/A"}},"collectorId":"db8a6add-a6c2-4157-bb3c-b348ba77b199","runId":"0"}
{"data":{"ready":true,"paused":false,"onGround":false,"crashed":false,"sts":"2017-09-22T11:51:50Z","ts":"2017-11-15T16:12:56.823+11:00","pitch":"2.6690943355","roll":"-1.1909638859","yaw":"-0.0240754925","airspeed":"148.1796875000","altitude":"2303.8620603540","heading":{"true":25.870148769176872,"mag":39.59756576136437},"vspeed":"1428.7032937500","ilsDeviation":{"loc":"0.0625610352","gs":"-2.5000000000"},"onTrack":false,"status":0,"lng":-73.8779854425167,"lat":40.48768640681916,"weather":{"wind":{"heading":"319.9208068848","speed":14},"temp":"11.4609375000","turbulance":"N/A"}},"collectorId":"db8a6add-a6c2-4157-bb3c-b348ba77b199","runId":"0"}
{"data":{"ready":true,"paused":false,"onGround":false,"crashed":false,"sts":"2017-09-22T11:51:51Z","ts":"2017-11-15T16:12:56.933+11:00","pitch":"2.4226542515","roll":"-1.0943703168","yaw":"0.0942063812","airspeed":"148.0859375000","altitude":"2305.4923196171","heading":{"true":25.751787068434723,"mag":39.47920406062222},"vspeed":"1373.3391187500","ilsDeviation":{"loc":"0.0641208230","gs":"-2.5000000000"},"onTrack":false,"status":0,"lng":-73.87793630743955,"lat":40.4877522314892,"weather":{"wind":{"heading":"319.4193725586","speed":14},"temp":"11.4609375000","turbulance":"N/A"}},"collectorId":"db8a6add-a6c2-4157-bb3c-b348ba77b199","runId":"0"}
{"data":{"ready":true,"paused":false,"onGround":false,"crashed":false,"sts":"2017-09-22T11:51:51Z","ts":"2017-11-15T16:12:57.042+11:00","pitch":"2.1584499418","roll":"-0.9954606732","yaw":"-0.5831359154","airspeed":"147.0078125000","altitude":"2307.1416747406","heading":{"true":25.641965027432448,"mag":39.36938201961995},"vspeed":"1316.4370500000","ilsDeviation":{"loc":"0.0641208230","gs":"-2.5000000000"},"onTrack":false,"status":0,"lng":-73.87788434531384,"lat":40.487821869852304,"weather":{"wind":{"heading":"319.4197082520","speed":14},"temp":"11.4570312500","turbulance":"N/A"}},"collectorId":"db8a6add-a6c2-4157-bb3c-b348ba77b199","runId":"0"}
{"data":{"ready":true,"paused":false,"onGround":false,"crashed":false,"sts":"2017-09-22T11:51:51Z","ts":"2017-11-15T16:12:57.152+11:00","pitch":"1.9195975558","roll":"-0.8930131719","yaw":"-1.0943417784","airspeed":"146.4609375000","altitude":"2308.5760412110","heading":{"true":25.543589495080223,"mag":39.27100648726773},"vspeed":"1263.3797156250","ilsDeviation":{"loc":"0.0641208230","gs":"-2.5000000000"},"onTrack":false,"status":0,"lng":-73.87783611241376,"lat":40.48788652685781,"weather":{"wind":{"heading":"319.4200744629","speed":14},"temp":"11.4570312500","turbulance":"N/A"}},"collectorId":"db8a6add-a6c2-4157-bb3c-b348ba77b199","runId":"0"}
{"data":{"ready":true,"paused":false,"onGround":false,"crashed":false,"sts":"2017-09-22T11:51:51Z","ts":"2017-11-15T16:12:57.152+11:00","pitch":"1.9195975558","roll":"-0.8930131719","yaw":"-1.0943417784","airspeed":"146.4609375000","altitude":"2308.5760412110","heading":{"true":25.543589495080223,"mag":39.27100648726773},"vspeed":"1263.3797156250","ilsDeviation":{"loc":"0.0641208230","gs":"-2.5000000000"},"onTrack":false,"status":0,"lng":-73.87783611241376,"lat":40.48788652685781,"weather":{"wind":{"heading":"319.4200744629","speed":14},"temp":"11.4570312500","turbulance":"N/A"}},"collectorId":"db8a6add-a6c2-4157-bb3c-b348ba77b199","runId":"0"}
{"data":{"ready":true,"paused":false,"onGround":false,"crashed":false,"sts":"2017-09-22T11:51:51Z","ts":"2017-11-15T16:12:57.375+11:00","pitch":"1.4837809467","roll":"-0.6553017653","yaw":"-0.8898666599","airspeed":"143.4140625000","altitude":"2311.1163211471","heading":{"true":25.328542356699526,"mag":39.05595934888703},"vspeed":"1144.1929500000","ilsDeviation":{"loc":"0.0656127930","gs":"-2.5000000000"},"onTrack":false,"status":0,"lng":-73.87773565342228,"lat":40.48802121231553,"weather":{"wind":{"heading":"319.4208068848","speed":14},"temp":"11.4492187500","turbulance":"N/A"}},"collectorId":"db8a6add-a6c2-4157-bb3c-b348ba77b199","runId":"0"}
{"data":{"ready":true,"paused":false,"onGround":false,"crashed":false,"sts":"2017-09-22T11:51:51Z","ts":"2017-11-15T16:12:57.485+11:00","pitch":"1.3241444055","roll":"-0.5389865687","yaw":"-0.7577162566","airspeed":"142.6171875000","altitude":"2311.9995230253","heading":{"true":25.23384734653066,"mag":38.96126433871816},"vspeed":"1088.0598281250","ilsDeviation":{"loc":"0.0656127930","gs":"-2.5000000000"},"onTrack":false,"status":0,"lng":-73.87769195274697,"lat":40.48807980504058,"weather":{"wind":{"heading":"319.4210815430","speed":14},"temp":"11.4492187500","turbulance":"N/A"}},"collectorId":"db8a6add-a6c2-4157-bb3c-b348ba77b199","runId":"0"}
{"data":{"ready":true,"paused":false,"onGround":false,"crashed":false,"sts":"2017-09-22T11:51:51Z","ts":"2017-11-15T16:12:57.594+11:00","pitch":"1.1482080856","roll":"-0.3894350221","yaw":"-0.2187705682","airspeed":"142.6406250000","altitude":"2312.8900142763","heading":{"true":25.12014051013086,"mag":38.84755750231836},"vspeed":"1014.2409281250","ilsDeviation":{"loc":"0.0671047629","gs":"-2.5000000000"},"onTrack":false,"status":0,"lng":-73.87763821649514,"lat":40.488151853244,"weather":{"wind":{"heading":"319.4214477539","speed":14},"temp":"11.4492187500","turbulance":"N/A"}},"collectorId":"db8a6add-a6c2-4157-bb3c-b348ba77b199","runId":"0"}
{"data":{"ready":true,"paused":false,"onGround":false,"crashed":false,"sts":"2017-09-22T11:51:51Z","ts":"2017-11-15T16:12:57.706+11:00","pitch":"1.0154225334","roll":"-0.2730597253","yaw":"0.1759471544","airspeed":"142.8046875000","altitude":"2313.4609580931","heading":{"true":25.03336999305486,"mag":38.76078698524236},"vspeed":"950.4183375000","ilsDeviation":{"loc":"0.0671047629","gs":"-2.5000000000"},"onTrack":false,"status":0,"lng":-73.87759399081057,"lat":40.48821115072317,"weather":{"wind":{"heading":"319.4217529297","speed":14},"temp":"11.4414062500","turbulance":"N/A"}},"collectorId":"db8a6add-a6c2-4157-bb3c-b348ba77b199","runId":"0"}
{"data":{"ready":true,"paused":false,"onGround":false,"crashed":false,"sts":"2017-09-22T11:51:51Z","ts":"2017-11-15T16:12:57.815+11:00","pitch":"0.8780011443","roll":"-0.1610928575","yaw":"0.5381206869","airspeed":"142.9687500000","altitude":"2313.9162642467","heading":{"true":24.950626516614147,"mag":38.67804350880165},"vspeed":"878.9062781250","ilsDeviation":{"loc":"0.0671047629","gs":"-2.5000000000"},"onTrack":false,"status":0,"lng":-73.87754609139498,"lat":40.48827537599447,"weather":{"wind":{"heading":"319.4220886230","speed":14},"temp":"11.4414062500","turbulance":"N/A"}},"collectorId":"db8a6add-a6c2-4157-bb3c-b348ba77b199","runId":"0"}
{"data":{"ready":true,"paused":false,"onGround":false,"crashed":false,"sts":"2017-09-22T11:51:51Z","ts":"2017-11-15T16:12:57.815+11:00","pitch":"0.8780011443","roll":"-0.1610928575","yaw":"0.5381206869","airspeed":"142.9687500000","altitude":"2313.9162642467","heading":{"true":24.950626516614147,"mag":38.67804350880165},"vspeed":"878.9062781250","ilsDeviation":{"loc":"0.0671047629","gs":"-2.5000000000"},"onTrack":false,"status":0,"lng":-73.87754609139498,"lat":40.48827537599447,"weather":{"wind":{"heading":"319.4220886230","speed":14},"temp":"11.4414062500","turbulance":"N/A"}},"collectorId":"db8a6add-a6c2-4157-bb3c-b348ba77b199","runId":"0"}
{"data":{"ready":true,"paused":false,"onGround":false,"crashed":false,"sts":"2017-09-22T11:51:52Z","ts":"2017-11-15T16:12:58.037+11:00","pitch":"0.5804215922","roll":"0.0216821306","yaw":"0.4450484905","airspeed":"146.1796875000","altitude":"2314.3575548480","heading":{"true":24.82262189636812,"mag":38.55003888855562},"vspeed":"722.8100625000","ilsDeviation":{"loc":"0.0686306418","gs":"-2.5000000000"},"onTrack":false,"status":0,"lng":-73.8774451033625,"lat":40.488410790002106,"weather":{"wind":{"heading":"319.4228210449","speed":14},"temp":"11.4414062500","turbulance":"N/A"}},"collectorId":"db8a6add-a6c2-4157-bb3c-b348ba77b199","runId":"0"}
{"data":{"ready":true,"paused":false,"onGround":false,"crashed":false,"sts":"2017-09-22T11:51:52Z","ts":"2017-11-15T16:12:58.137+11:00","pitch":"0.4161424246","roll":"0.0896009207","yaw":"0.3122802212","airspeed":"147.5000000000","altitude":"2314.3685076507","heading":{"true":24.780166512635763,"mag":38.50758350482326},"vspeed":"648.9911625000","ilsDeviation":{"loc":"0.0686306418","gs":"-2.5000000000"},"onTrack":false,"status":0,"lng":-73.877396989083,"lat":40.48847530813754,"weather":{"wind":{"heading":"319.4231872559","speed":14},"temp":"11.4414062500","turbulance":"N/A"}},"collectorId":"db8a6add-a6c2-4157-bb3c-b348ba77b199","runId":"0"}
{"data":{"ready":true,"paused":false,"onGround":false,"crashed":false,"sts":"2017-09-22T11:51:52Z","ts":"2017-11-15T16:12:58.246+11:00","pitch":"0.2147637376","roll":"0.1495511275","yaw":"0.2476500243","airspeed":"148.3828125000","altitude":"2314.2729185531","heading":{"true":24.74399313794556,"mag":38.47141013013306},"vspeed":"572.0964750000","ilsDeviation":{"loc":"0.0701565207","gs":"-2.5000000000"},"onTrack":false,"status":0,"lng":-73.87734559286811,"lat":40.48854422642876,"weather":{"wind":{"heading":"319.4471740723","speed":14},"temp":"11.4414062500","turbulance":"N/A"}},"collectorId":"db8a6add-a6c2-4157-bb3c-b348ba77b199","runId":"0"}
{"data":{"ready":true,"paused":false,"onGround":false,"crashed":false,"sts":"2017-09-22T11:51:52Z","ts":"2017-11-15T16:12:58.355+11:00","pitch":"-0.0040403683","roll":"0.2007343505","yaw":"0.2125596777","airspeed":"148.9296875000","altitude":"2314.0977822411","heading":{"true":24.716456656039313,"mag":38.44387364822681},"vspeed":"502.8912562500","ilsDeviation":{"loc":"0.0701565207","gs":"-2.5000000000"},"onTrack":false,"status":0,"lng":-73.87729660859235,"lat":40.48860990863153,"weather":{"wind":{"heading":"319.4899291992","speed":14},"temp":"11.4414062500","turbulance":"N/A"}},"collectorId":"db8a6add-a6c2-4157-bb3c-b348ba77b199","runId":"0"}
{"data":{"ready":true,"paused":false,"onGround":false,"crashed":false,"sts":"2017-09-22T11:51:52Z","ts":"2017-11-15T16:12:58.463+11:00","pitch":"-0.2340997857","roll":"0.2556306184","yaw":"-1.4267886009","airspeed":"150.1562500000","altitude":"2313.8694034863","heading":{"true":24.686232183393674,"mag":38.41364917558117},"vspeed":"439.8376125000","ilsDeviation":{"loc":"0.0701565207","gs":"-2.5000000000"},"onTrack":false,"status":0,"lng":-73.87725021154306,"lat":40.48867211608479,"weather":{"wind":{"heading":"319.5265808105","speed":19},"temp":"11.4414062500","turbulance":"N/A"}},"collectorId":"db8a6add-a6c2-4157-bb3c-b348ba77b199","runId":"0"}
{"data":{"ready":true,"paused":false,"onGround":false,"crashed":false,"sts":"2017-09-22T11:51:52Z","ts":"2017-11-15T16:12:58.575+11:00","pitch":"-0.4988866555","roll":"0.3281026810","yaw":"-1.4342786068","airspeed":"150.4921875000","altitude":"2313.5657350163","heading":{"true":24.637246175784036,"mag":38.364663167971536},"vspeed":"375.2460750000","ilsDeviation":{"loc":"0.0717502175","gs":"-2.5000000000"},"onTrack":false,"status":0,"lng":-73.87720040694724,"lat":40.488738881286416,"weather":{"wind":{"heading":"319.5698852539","speed":19},"temp":"11.4414062500","turbulance":"N/A"}},"collectorId":"db8a6add-a6c2-4157-bb3c-b348ba77b199","runId":"0"}
{"data":{"ready":true,"paused":false,"onGround":false,"crashed":false,"sts":"2017-09-22T11:51:52Z","ts":"2017-11-15T16:12:58.684+11:00","pitch":"-0.7768194327","roll":"0.4103029936","yaw":"-1.4259162138","airspeed":"150.7968750000","altitude":"2313.1984838043","heading":{"true":24.571744297420793,"mag":38.29916128960829},"vspeed":"313.7303250000","ilsDeviation":{"loc":"0.0717502175","gs":"-2.5000000000"},"onTrack":false,"status":0,"lng":-73.87714971417678,"lat":40.48880682481179,"weather":{"wind":{"heading":"319.6167907715","speed":19},"temp":"11.4414062500","turbulance":"N/A"}},"collectorId":"db8a6add-a6c2-4157-bb3c-b348ba77b199","runId":"0"}
